City_ID,City,Country,Date,Lat,Lng,Max Temp,Humidity,Cloudiness,Wind Speed,Weather Description,Rain inches (last 3 hours),Snow inches (last 3 hours)
0,Busselton,AU,2020-01-05 09:02:19,-33.64,115.35,87.01,11,0,9.66,clear sky,0.0,0.0
1,Rikitea,PF,2020-01-05 09:02:20,-23.12,-134.97,75.65,74,55,17.2,broken clouds,0.0,0.0
2,Albany,US,2020-01-05 09:02:20,42.65,-73.75,35.6,59,90,19.46,overcast clouds,0.0,0.0
3,Guerrero Negro,MX,2020-01-05 09:02:20,27.97,-114.04,58.55,59,0,3.76,clear sky,0.0,0.0
4,Hobart,AU,2020-01-05 08:58:45,-42.88,147.33,64.4,45,20,9.17,few clouds,0.0,0.0
5,Mehamn,NO,2020-01-05 09:02:21,71.03,27.85,24.42,88,100,22.24,light snow,0.0,1.06
6,Khatanga,RU,2020-01-05 09:02:21,71.98,102.47,-20.36,88,0,9.13,clear sky,0.0,0.0
7,Ushuaia,AR,2020-01-05 08:58:39,-54.81,-68.31,50.0,66,40,10.29,scattered clouds,0.0,0.0
8,Norman Wells,CA,2020-01-05 09:02:21,65.28,-126.83,-20.2,75,75,6.93,light snow,0.0,0.0
9,Cockburn Town,TC,2020-01-05 09:02:21,21.46,-71.14,76.89,67,35,5.35,scattered clouds,0.0,0.0
10,Clyde River,CA,2020-01-05 09:02:22,70.47,-68.59,-29.2,60,90,6.93,overcast clouds,0.0,0.0
11,East London,ZA,2020-01-05 09:02:22,-33.02,27.91,73.4,94,90,17.22,overcast clouds,0.0,0.0
12,Chokurdakh,RU,2020-01-05 09:02:22,70.62,147.9,-16.71,95,0,8.93,clear sky,0.0,0.0
13,Arraial Do Cabo,BR,2020-01-05 09:02:23,-22.97,-42.02,73.4,100,75,3.36,broken clouds,0.0,0.0
14,Nuuk,GL,2020-01-05 09:02:23,64.17,-51.74,19.4,85,100,3.36,light snow,0.0,0.0
15,Mataura,NZ,2020-01-05 09:02:23,-46.19,168.86,52.0,71,28,11.99,scattered clouds,0.0,0.0
16,Faanui,PF,2020-01-05 09:02:23,-16.48,-151.75,81.39,78,87,11.79,light rain,0.44,0.0
17,Zhireken,RU,2020-01-05 09:02:23,52.82,117.29,0.9,96,14,0.04,few clouds,0.0,0.0
18,Severo-Kurilsk,RU,2020-01-05 09:02:24,50.68,156.12,18.23,88,100,8.72,light snow,0.0,0.88
19,Mackay,CA,2020-01-05 09:02:24,53.65,-115.58,19.4,73,1,8.05,clear sky,0.0,0.0
20,Hay River,CA,2020-01-05 09:02:24,60.82,-115.79,-5.8,76,20,13.87,few clouds,0.0,0.0
21,Hilo,US,2020-01-05 09:01:24,19.71,-155.08,73.4,78,1,6.93,light rain,0.0,0.0
22,Aksarka,RU,2020-01-05 09:02:24,66.56,67.8,21.58,79,0,22.44,clear sky,0.0,0.0
23,Sao Filipe,CV,2020-01-05 09:02:25,14.9,-24.5,70.86,67,33,18.52,scattered clouds,0.0,0.0
24,Bluff,AU,2020-01-05 09:02:25,-23.58,149.07,83.59,50,55,14.16,broken clouds,0.0,0.0
25,Lamu,CN,2020-01-05 09:02:25,35.77,102.37,24.26,37,100,6.64,overcast clouds,0.0,0.0
26,Stadthagen,DE,2020-01-05 09:02:25,52.33,9.21,37.4,90,75,2.24,broken clouds,0.0,0.0
27,Quatre Cocos,MU,2020-01-05 09:02:25,-20.21,57.76,81.0,83,75,4.7,broken clouds,0.0,0.0
28,Puerto Ayora,EC,2020-01-05 09:02:26,-0.74,-90.35,75.0,83,53,4.0,broken clouds,0.0,0.0
29,Brae,GB,2020-01-05 09:02:26,60.4,-1.35,50.0,93,40,36.91,light rain,0.0,0.0
30,Sal Rei,CV,2020-01-05 09:02:26,16.18,-22.92,68.0,64,1,9.17,dust,0.0,0.0
31,Dikson,RU,2020-01-05 09:02:26,73.51,80.55,9.73,84,100,23.96,light snow,0.0,0.5
32,Terme,TR,2020-01-05 09:02:26,41.21,36.97,48.2,57,0,6.93,clear sky,0.0,0.0
33,Ostrovnoy,RU,2020-01-05 09:02:27,68.05,39.51,14.31,88,40,25.39,scattered clouds,0.0,0.0
34,Kruisfontein,ZA,2020-01-05 09:02:27,-34.0,24.73,74.75,52,23,19.91,few clouds,0.0,0.0
35,Tabas,IR,2020-01-05 09:02:27,33.6,56.92,57.2,62,4,2.24,light rain,0.5,0.0
36,Kapaa,US,2020-01-05 09:02:27,22.08,-159.32,75.2,88,90,19.46,overcast clouds,0.0,0.0
37,Koulikoro,ML,2020-01-05 09:02:28,12.86,-7.56,64.4,17,68,8.05,broken clouds,0.0,0.0
38,Barrow,AR,2020-01-05 09:02:28,-38.31,-60.23,62.24,95,95,5.46,light rain,0.81,0.0
39,Punta Arenas,CL,2020-01-05 09:02:28,-53.16,-70.91,48.2,81,90,6.93,light rain,0.0,0.0
40,Shingu,JP,2020-01-05 09:02:28,33.72,135.99,46.4,45,40,16.11,scattered clouds,0.0,0.0
41,Saskylakh,RU,2020-01-05 09:02:28,71.97,114.09,-19.35,92,60,8.88,broken clouds,0.0,0.0
42,Spruce Grove,CA,2020-01-05 08:59:49,53.55,-113.9,24.8,62,1,8.05,clear sky,0.0,0.0
43,Avarua,CK,2020-01-05 09:02:29,-21.21,-159.78,77.0,94,100,1.12,light rain,0.25,0.0
44,Champerico,MX,2020-01-05 09:02:29,16.38,-93.6,59.67,87,98,4.23,overcast clouds,0.0,0.0
45,Catumbela,AO,2020-01-05 09:02:29,-12.43,13.55,82.4,74,75,7.72,broken clouds,0.0,0.0
46,Upernavik,GL,2020-01-05 09:02:30,72.79,-56.15,-35.14,90,55,10.51,broken clouds,0.0,0.0
47,Vostok,RU,2020-01-05 09:02:30,46.45,135.83,-3.62,98,100,4.61,overcast clouds,0.0,0.0
48,Grand Gaube,MU,2020-01-05 09:02:31,-20.01,57.66,81.0,83,75,4.7,broken clouds,0.0,0.0
49,Santa Cruz,BR,2020-01-05 09:02:31,-6.22,-36.02,72.34,88,79,2.44,broken clouds,0.0,0.0
50,Cape Town,ZA,2020-01-05 08:59:50,-33.93,18.42,73.99,68,75,16.11,broken clouds,0.0,0.0
51,Katherine,AU,2020-01-05 09:02:31,-14.47,132.26,80.6,78,40,9.17,scattered clouds,0.0,0.0
52,Zaragoza,SV,2020-01-05 09:02:32,13.59,-89.29,78.8,57,0,4.7,clear sky,0.0,0.0
53,Nizhniy Kuranakh,RU,2020-01-05 09:02:32,58.84,125.49,12.09,95,100,5.44,light snow,0.0,0.56
54,Ponta Do Sol,BR,2020-01-05 09:02:32,-20.63,-46.0,65.75,95,33,1.39,scattered clouds,0.0,0.0
55,Mahebourg,MU,2020-01-05 09:02:32,-20.41,57.7,81.0,83,75,4.7,broken clouds,0.0,0.0
56,Norsup,VU,2020-01-05 09:02:32,-16.07,167.38,81.34,79,16,14.05,few clouds,0.0,0.0
57,Victoria,BN,2020-01-05 09:00:16,5.28,115.24,86.0,70,75,11.41,broken clouds,0.0,0.0
58,Port-Gentil,GA,2020-01-05 09:02:33,-0.72,8.78,82.4,88,40,8.05,scattered clouds,0.0,0.0
59,Luderitz,NA,2020-01-05 09:02:33,-26.65,15.16,61.59,88,0,11.5,clear sky,0.0,0.0
60,Butaritari,KI,2020-01-05 09:02:33,3.07,172.79,84.99,78,100,12.75,light rain,0.56,0.0
61,Gizo,IL,2020-01-05 09:02:33,31.8,34.94,57.99,71,75,18.34,broken clouds,0.0,0.0
62,Bambous Virieux,MU,2020-01-05 09:02:34,-20.34,57.76,81.0,83,75,4.7,broken clouds,0.0,0.0
63,Jamestown,AU,2020-01-05 09:02:34,-33.21,138.6,55.15,83,100,11.7,light rain,0.81,0.0
64,Oltu,TR,2020-01-05 09:02:34,40.55,42.0,27.01,60,0,3.36,clear sky,0.0,0.0
65,Bubaque,GW,2020-01-05 09:02:34,11.28,-15.83,73.78,43,0,18.95,clear sky,0.0,0.0
66,Mecca,SA,2020-01-05 08:59:02,21.43,39.83,67.51,43,17,12.39,few clouds,0.0,0.0
67,Tomatlan,MX,2020-01-05 09:02:35,19.93,-105.25,56.82,37,24,4.61,few clouds,0.0,0.0
68,Ancud,CL,2020-01-05 09:02:35,-41.87,-73.83,51.8,76,100,5.82,light rain,0.44,0.0
69,Saint-Philippe,CA,2020-01-05 09:02:35,45.36,-73.48,30.2,74,90,8.05,overcast clouds,0.0,0.0
70,Hithadhoo,MV,2020-01-05 09:02:35,-0.6,73.08,84.61,68,64,8.01,broken clouds,0.0,0.0
71,Naryan-Mar,RU,2020-01-05 09:02:36,67.67,53.09,16.99,85,65,18.14,broken clouds,0.0,0.0
72,Limbang,BN,2020-01-05 09:02:36,4.75,115.01,86.0,70,75,6.93,broken clouds,0.0,0.0
73,Kloulklubed,PW,2020-01-05 09:02:36,7.04,134.26,81.16,84,100,18.54,light rain,2.88,0.0
74,Coatetelco,MX,2020-01-05 09:02:36,18.72,-99.33,66.0,48,0,3.0,clear sky,0.0,0.0
75,Port Alfred,ZA,2020-01-05 09:02:37,-33.59,26.89,75.0,87,100,5.99,overcast clouds,0.0,0.0
76,Taree,AU,2020-01-05 09:02:37,-31.91,152.46,75.99,69,90,14.99,overcast clouds,0.0,0.0
77,Yinchuan,CN,2020-01-05 09:02:37,38.48,106.21,27.0,53,100,3.13,light snow,0.0,0.31
78,Wolcott,US,2020-01-05 09:01:28,41.6,-72.99,39.2,64,90,14.99,overcast clouds,0.0,0.0
79,Belaya Gora,RU,2020-01-05 09:02:37,68.54,146.19,-18.96,94,0,3.53,clear sky,0.0,0.0
80,Byron Bay,AU,2020-01-05 09:02:16,-28.65,153.62,86.0,73,0,12.75,clear sky,0.0,0.0
81,Kahului,US,2020-01-05 08:57:42,20.89,-156.47,75.2,73,1,13.87,clear sky,0.0,0.0
82,Margate,AU,2020-01-05 09:02:38,-43.03,147.26,64.4,45,20,9.17,few clouds,0.0,0.0
83,Yashkul,RU,2020-01-05 09:02:38,46.17,45.34,39.69,77,91,9.98,overcast clouds,0.0,0.0
84,Tarija,BO,2020-01-05 09:02:38,-21.53,-64.73,53.35,96,97,1.92,overcast clouds,0.0,0.0
85,Klaksvik,FO,2020-01-05 09:02:39,62.23,-6.59,46.4,81,100,13.87,overcast clouds,0.0,0.0
86,Tilichiki,RU,2020-01-05 09:02:39,60.47,166.1,-7.33,62,23,6.02,few clouds,0.0,0.0
87,Nikolskoye,RU,2020-01-05 09:02:39,59.7,30.79,32.0,78,75,15.66,broken clouds,0.0,0.0
88,Inongo,CD,2020-01-05 09:02:39,-1.93,18.29,87.75,51,100,2.19,overcast clouds,0.0,0.0
89,Lompoc,US,2020-01-05 09:02:40,34.64,-120.46,52.0,93,90,15.03,fog,0.0,0.0
90,Taoudenni,ML,2020-01-05 09:02:40,22.68,-3.98,57.6,22,0,9.8,clear sky,0.0,0.0
91,Opuwo,NA,2020-01-05 09:00:40,-18.06,13.84,73.63,65,93,3.67,overcast clouds,0.0,0.0
92,Coquimbo,CL,2020-01-05 09:02:40,-29.95,-71.34,60.8,87,90,6.93,overcast clouds,0.0,0.0
93,Mar Del Plata,AR,2020-01-05 09:02:41,-46.43,-67.52,55.81,42,100,22.75,overcast clouds,0.0,0.0
94,Alofi,NU,2020-01-05 09:02:41,-19.06,-169.92,75.2,94,0,3.36,clear sky,0.0,0.0
95,Tiksi,RU,2020-01-05 09:02:41,71.64,128.87,-17.16,87,57,9.55,broken clouds,0.0,0.0
96,Atar,MR,2020-01-05 09:02:41,20.52,-13.05,57.85,21,0,13.02,clear sky,0.0,0.0
97,Kodiak,US,2020-01-05 09:02:41,39.95,-94.76,37.99,55,1,13.87,clear sky,0.0,0.0
98,Paracuru,BR,2020-01-05 09:02:42,-3.41,-39.03,86.0,83,40,6.93,scattered clouds,0.0,0.0
99,Lavrentiya,RU,2020-01-05 09:02:42,65.58,-170.99,-7.47,84,100,10.16,overcast clouds,0.0,0.0
100,Polunochnoye,RU,2020-01-05 09:02:42,60.87,60.43,25.5,82,100,8.84,overcast clouds,0.0,0.0
101,Qaanaaq,GL,2020-01-05 09:02:42,77.48,-69.36,-35.63,52,0,6.46,clear sky,0.0,0.0
102,Nyaunglebin,MM,2020-01-05 09:02:43,17.95,96.73,89.91,39,32,4.43,scattered clouds,0.0,0.0
103,Kalangala,UG,2020-01-05 09:02:43,-0.32,32.29,78.8,74,20,5.82,few clouds,0.0,0.0
104,Bom Jesus,BR,2020-01-05 09:02:43,-9.08,-44.36,68.92,98,100,1.16,light rain,1.81,0.0
105,Herre,FR,2020-01-05 09:02:44,50.3,1.64,44.01,100,90,2.24,overcast clouds,0.0,0.0
106,Carnarvon,ZA,2020-01-05 09:02:44,-30.97,22.13,85.24,16,53,13.0,broken clouds,0.0,0.0
107,Malumfashi,NG,2020-01-05 09:02:44,11.79,7.62,65.75,24,100,18.7,overcast clouds,0.0,0.0
108,Port-Cartier,CA,2020-01-05 09:02:44,50.03,-66.88,15.8,72,90,6.93,overcast clouds,0.0,0.0
109,Ukiah,US,2020-01-05 09:02:44,39.15,-123.21,50.0,66,75,10.29,broken clouds,0.0,0.0
110,Tabou,CI,2020-01-05 09:01:05,4.42,-7.36,77.31,50,29,3.15,scattered clouds,0.0,0.0
111,Blagoyevo,RU,2020-01-05 09:02:45,63.37,47.92,15.26,97,100,3.71,overcast clouds,0.0,0.0
112,Castro,CL,2020-01-05 09:02:45,-42.48,-73.76,51.8,76,79,5.82,light rain,0.44,0.0
113,Hermanus,ZA,2020-01-05 09:02:45,-34.42,19.24,75.99,63,99,7.0,overcast clouds,0.0,0.0
114,Tecoanapa,MX,2020-01-05 09:02:45,16.99,-99.26,75.2,94,5,6.93,clear sky,0.0,0.0
115,Oni,GE,2020-01-05 09:02:46,42.59,43.44,33.42,57,0,2.48,clear sky,0.0,0.0
116,Vaini,IN,2020-01-05 09:02:46,15.34,74.49,84.2,35,40,6.93,scattered clouds,0.0,0.0
117,Anito,PH,2020-01-05 09:02:46,12.45,125.29,81.05,80,7,28.57,light rain,0.69,0.0
118,Port Elizabeth,US,2020-01-05 09:02:47,39.31,-74.98,43.0,55,90,14.99,overcast clouds,0.0,0.0
119,Znamenskoye,RU,2020-01-05 09:02:47,57.13,73.82,18.41,93,100,7.76,overcast clouds,0.0,0.0
120,Bredasdorp,ZA,2020-01-05 09:02:47,-34.53,20.04,80.6,42,100,11.41,overcast clouds,0.0,0.0
121,Tuktoyaktuk,CA,2020-01-05 09:02:47,69.44,-133.03,-24.3,92,78,6.91,broken clouds,0.0,0.0
122,Marsa Matruh,EG,2020-01-05 09:02:47,31.35,27.25,55.4,82,20,10.29,few clouds,0.0,0.0
123,Wasilla,US,2020-01-05 09:01:17,61.58,-149.44,0.0,83,75,0.54,broken clouds,0.0,0.0
124,San Patricio,PY,2020-01-05 09:02:48,-26.98,-56.83,67.5,79,0,0.76,clear sky,0.0,0.0
125,Praia Da Vitoria,PT,2020-01-05 09:02:48,38.73,-27.07,64.4,93,40,23.73,scattered clouds,0.0,0.0
126,Atuona,PF,2020-01-05 09:02:48,-9.8,-139.03,79.95,74,0,6.82,light rain,0.25,0.0
127,Lewiston,US,2020-01-05 09:01:15,44.1,-70.21,34.0,97,90,9.17,light rain,0.0,0.0
128,Liwale,TZ,2020-01-05 09:02:49,-9.8,37.92,85.17,59,93,5.64,overcast clouds,0.0,0.0
129,Ca Mau,VN,2020-01-05 09:00:40,9.18,105.15,86.23,45,63,13.47,broken clouds,0.0,0.0
130,Caravelas,BR,2020-01-05 09:02:49,-17.73,-39.27,75.18,89,100,6.46,light rain,1.0,0.0
131,Povenets,RU,2020-01-05 09:02:50,62.85,34.83,21.69,89,82,10.38,broken clouds,0.0,0.0
132,Zhigalovo,RU,2020-01-05 09:02:50,54.81,105.15,13.5,97,94,2.37,light snow,0.0,0.13
133,Ribeira Grande,PT,2020-01-05 09:02:50,38.52,-28.7,64.4,88,75,25.28,light intensity shower rain,0.0,0.0
134,Chuy,UY,2020-01-05 09:02:50,-33.69,-53.46,64.98,87,0,6.6,clear sky,0.0,0.0
135,Meulaboh,ID,2020-01-05 09:02:51,4.14,96.13,83.57,75,0,10.33,clear sky,0.0,0.0
136,Falmouth,GB,2020-01-05 09:02:51,50.16,-5.07,51.01,81,90,10.29,overcast clouds,0.0,0.0
137,Iqaluit,CA,2020-01-05 09:02:51,63.75,-68.52,-31.0,59,5,13.87,clear sky,0.0,0.0
138,New Norfolk,AU,2020-01-05 09:02:51,-42.78,147.06,64.4,45,20,9.17,few clouds,0.0,0.0
139,Smoky Lake,CA,2020-01-05 09:02:51,54.11,-112.47,19.99,81,0,4.0,clear sky,0.0,0.0
140,Provideniya,RU,2020-01-05 09:02:52,64.42,-173.23,-9.81,98,90,9.82,light snow,0.0,0.13
141,Acajutla,SV,2020-01-05 09:02:52,13.59,-89.83,69.01,78,0,11.01,clear sky,0.0,0.0
142,Alihe,CN,2020-01-05 09:02:52,50.57,123.73,6.15,89,0,1.72,clear sky,0.0,0.0
143,Lagoa,PT,2020-01-05 09:02:52,37.14,-8.45,53.6,76,20,8.05,few clouds,0.0,0.0
144,Buchanan,LR,2020-01-05 09:02:52,5.88,-10.05,68.0,82,20,4.7,mist,0.0,0.0
145,Camacha,PT,2020-01-05 09:02:53,33.08,-16.33,62.6,87,20,3.36,few clouds,0.0,0.0
146,Bonavista,CA,2020-01-05 09:02:53,48.65,-53.11,24.93,81,33,2.77,scattered clouds,0.0,0.0
147,Agen,FR,2020-01-05 09:02:53,44.2,0.62,39.0,81,90,2.24,fog,0.0,0.0
148,Kamaishi,JP,2020-01-05 09:02:53,39.28,141.86,32.0,64,40,9.17,shower rain,0.0,0.0
149,Komsomolskiy,RU,2020-01-05 09:02:53,67.55,63.78,22.84,90,100,27.25,light snow,0.0,0.56
150,Shar,NG,2020-01-05 09:02:54,7.3,8.73,82.15,16,5,11.16,clear sky,0.0,0.0
151,Marzuq,YE,2020-01-05 09:02:54,14.4,46.47,84.07,20,0,5.79,clear sky,0.0,0.0
152,Yar-Sale,RU,2020-01-05 09:02:54,66.83,70.83,21.25,79,0,20.78,clear sky,0.0,0.0
153,Port Lincoln,AU,2020-01-05 09:02:54,-34.72,135.86,61.92,73,84,15.97,broken clouds,0.0,0.0
154,Karasjok,NO,2020-01-05 09:02:54,69.47,25.52,26.6,68,47,32.21,scattered clouds,0.0,0.0
155,Yumen,CN,2020-01-05 09:02:55,40.29,97.04,25.32,47,100,11.32,overcast clouds,0.0,0.0
156,Darnah,LY,2020-01-05 09:02:55,32.77,22.64,61.39,72,97,25.86,light rain,0.19,0.0
157,Pangkalanbuun,ID,2020-01-05 09:02:55,-2.68,111.62,85.71,73,50,3.89,moderate rain,4.19,0.0
158,Narsaq,GL,2020-01-05 09:02:55,60.91,-46.05,23.0,79,100,4.7,light shower snow,0.0,0.0
159,Savinka,RU,2020-01-05 09:02:55,50.08,47.1,33.46,91,100,12.97,overcast clouds,0.0,0.0
160,Sao Francisco Do Sul,BR,2020-01-05 09:02:56,-26.24,-48.64,69.01,61,53,9.73,light rain,0.44,0.0
161,Kaitangata,NZ,2020-01-05 09:02:56,-46.28,169.85,54.0,50,17,20.0,few clouds,0.0,0.0
162,Luganville,VU,2020-01-05 09:02:56,-15.51,167.18,73.15,93,20,2.55,few clouds,0.0,0.0
163,Ust-Kut,RU,2020-01-05 09:02:57,56.78,105.75,13.44,94,99,6.24,light snow,0.0,0.13
164,Laguna,BZ,2020-01-05 09:02:57,16.17,-88.94,71.6,83,75,11.41,broken clouds,0.0,0.0
165,Igunga,TZ,2020-01-05 09:02:57,-4.28,33.88,79.99,55,93,4.79,overcast clouds,0.0,0.0
166,La Romana,DO,2020-01-05 09:00:32,18.43,-68.97,73.4,94,75,3.36,broken clouds,0.0,0.0
167,Dumai,ID,2020-01-05 09:02:57,1.68,101.45,88.79,53,19,4.92,few clouds,0.0,0.0
168,Outjo,NA,2020-01-05 09:02:58,-20.11,16.16,72.19,65,99,6.26,overcast clouds,0.0,0.0
169,Bushehr,IR,2020-01-05 09:02:58,28.97,50.84,68.0,56,64,4.7,broken clouds,0.0,0.0
170,Tasiilaq,GL,2020-01-05 09:02:58,65.61,-37.64,26.6,68,100,5.82,overcast clouds,0.0,0.0
171,Hasaki,JP,2020-01-05 09:01:46,35.73,140.83,42.01,48,20,8.05,few clouds,0.0,0.0
172,Saurimo,AO,2020-01-05 09:02:58,-9.66,20.4,73.4,78,75,4.18,broken clouds,0.0,0.0
173,Yellowknife,CA,2020-01-05 09:02:59,62.45,-114.38,0.0,77,90,12.75,light snow,0.0,0.0
174,Umm Lajj,SA,2020-01-05 09:02:59,25.02,37.27,65.32,24,22,8.93,few clouds,0.0,0.0
175,Nanortalik,GL,2020-01-05 09:02:59,60.14,-45.24,30.45,76,100,21.27,overcast clouds,0.0,0.0
176,Shahpur,IN,2020-01-05 09:02:59,22.19,77.91,70.03,34,0,3.87,clear sky,0.0,0.0
177,Clemencia,CO,2020-01-05 09:03:00,10.57,-75.33,80.6,83,40,10.29,scattered clouds,0.0,0.0
178,Popondetta,PG,2020-01-05 09:03:00,-8.77,148.24,69.03,94,96,2.24,moderate rain,11.63,0.0
179,Amapa,HN,2020-01-05 09:03:00,15.09,-87.97,71.6,100,90,3.36,overcast clouds,0.0,0.0
180,Torbay,CA,2020-01-05 09:03:00,47.66,-52.73,30.99,92,90,2.24,overcast clouds,0.0,0.0
181,Sirjan,IR,2020-01-05 09:03:01,29.44,55.67,48.29,70,100,26.78,light rain,2.0,0.0
182,Paso De Carrasco,UY,2020-01-05 09:03:01,-34.86,-56.05,68.0,77,0,6.93,clear sky,0.0,0.0
183,Katsuura,JP,2020-01-05 09:03:01,33.93,134.5,48.2,42,75,11.41,broken clouds,0.0,0.0
184,Henties Bay,NA,2020-01-05 09:03:01,-22.12,14.28,66.99,80,39,3.0,scattered clouds,0.0,0.0
185,Tuatapere,NZ,2020-01-05 09:03:01,-46.13,167.69,52.0,71,41,11.99,light rain,0.31,0.0
186,Grindavik,IS,2020-01-05 09:03:02,63.84,-22.43,37.4,66,75,34.45,light rain,0.0,0.0
187,Corinto,CO,2020-01-05 09:03:02,3.17,-76.26,68.0,94,40,3.36,scattered clouds,0.0,0.0
188,Goderich,CA,2020-01-05 09:00:21,43.74,-81.71,34.0,90,100,13.0,light snow,0.0,0.5
189,Turukhansk,RU,2020-01-05 09:03:02,65.8,87.96,17.56,93,100,16.44,light snow,0.0,0.88
190,Lulea,SE,2020-01-05 09:03:02,65.58,22.15,15.8,85,100,2.24,overcast clouds,0.0,0.0
191,Sines,PT,2020-01-05 09:03:03,37.96,-8.87,43.0,89,0,8.55,clear sky,0.0,0.0
192,Oranjemund,ZA,2020-01-05 09:03:03,-28.55,16.43,71.82,58,1,13.18,clear sky,0.0,0.0
193,Sitka,US,2020-01-05 09:03:03,37.17,-99.65,39.99,65,41,11.99,scattered clouds,0.0,0.0
194,Sorland,NO,2020-01-05 09:03:03,67.67,12.69,34.39,92,100,36.22,light snow,0.0,0.13
195,Aljezur,PT,2020-01-05 09:03:03,37.31,-8.8,52.0,79,0,8.75,clear sky,0.0,0.0
196,Puerto Escondido,MX,2020-01-05 09:03:04,15.86,-97.07,71.6,83,40,5.82,scattered clouds,0.0,0.0
197,Saint-Pierre,FR,2020-01-05 09:03:04,48.95,4.24,35.6,100,0,3.36,fog,0.0,0.0
198,Lata,IN,2020-01-05 09:03:04,30.78,78.62,18.59,64,80,7.34,broken clouds,0.0,0.0
199,Port Hardy,CA,2020-01-05 09:03:04,50.7,-127.42,41.0,86,90,12.75,light intensity shower rain,0.0,0.0
200,Ghanzi,BW,2020-01-05 09:03:05,-21.7,21.65,80.94,50,93,4.94,light rain,0.5,0.0
201,Lujiang,CN,2020-01-05 09:03:05,31.26,117.28,50.0,93,90,6.71,mist,0.0,0.0
202,Luohe,CN,2020-01-05 09:03:05,33.57,114.03,41.54,93,100,11.16,light rain,1.81,0.0
203,Guangyuan,CN,2020-01-05 09:03:05,32.43,105.86,55.0,49,89,5.19,overcast clouds,0.0,0.0
204,Makakilo City,US,2020-01-05 09:00:46,21.35,-158.09,75.99,100,90,4.7,light intensity drizzle,0.0,0.0
205,Saint Anthony,US,2020-01-05 09:03:06,43.97,-111.68,21.2,92,20,3.36,mist,0.0,0.0
206,Khani,GE,2020-01-05 09:03:06,41.96,42.96,44.6,65,75,5.82,broken clouds,0.0,0.0
207,Georgetown,GY,2020-01-05 09:03:06,6.8,-58.16,68.0,100,20,12.73,few clouds,0.0,0.0
208,Fortuna,US,2020-01-05 09:03:06,40.6,-124.16,46.4,100,90,9.17,overcast clouds,0.0,0.0
209,Khash,IR,2020-01-05 09:03:06,28.22,61.21,57.49,66,100,21.56,light rain,0.13,0.0
210,Frankfort,US,2020-01-05 09:03:07,38.2,-84.87,35.6,92,90,5.82,overcast clouds,0.0,0.0
211,Stokmarknes,NO,2020-01-05 09:03:07,68.56,14.91,30.99,82,100,4.0,light snow,0.0,0.38
212,Geraldton,CA,2020-01-05 09:03:07,49.72,-86.95,14.0,78,90,2.24,light snow,0.0,0.0
213,Fallon,US,2020-01-05 09:03:07,46.84,-105.12,33.01,73,75,27.51,broken clouds,0.0,0.0
214,Roald,NO,2020-01-05 09:03:08,62.58,6.12,44.01,81,75,23.04,light intensity drizzle rain,0.0,0.0
215,Vung Tau,VN,2020-01-05 09:01:35,10.35,107.08,82.71,56,97,12.17,overcast clouds,0.0,0.0
216,Longyearbyen,NO,2020-01-05 09:03:08,78.22,15.63,5.0,71,40,2.24,scattered clouds,0.0,0.0
217,Erzurum,TR,2020-01-05 09:03:08,39.91,41.27,23.0,92,75,1.95,broken clouds,0.0,0.0
218,Isangel,VU,2020-01-05 09:03:08,-19.55,169.27,76.48,81,39,16.51,light rain,0.13,0.0
219,Buraydah,SA,2020-01-05 09:03:09,26.33,43.97,57.2,54,0,92.16,clear sky,0.0,0.0
220,Rocha,UY,2020-01-05 09:03:09,-34.48,-54.34,60.01,93,0,7.52,clear sky,0.0,0.0
221,Saint-Denis,FR,2020-01-05 09:03:09,48.94,2.36,45.0,87,90,3.36,overcast clouds,0.0,0.0
222,Marawi,PH,2020-01-05 09:03:09,8.0,124.29,82.99,84,23,5.01,few clouds,0.0,0.0
223,Saldanha,PT,2020-01-05 09:03:10,41.42,-6.55,36.12,83,0,1.68,clear sky,0.0,0.0
224,Choix,MX,2020-01-05 09:03:10,26.71,-108.33,59.58,41,0,4.05,clear sky,0.0,0.0
225,Barcelos,BR,2020-01-05 09:03:10,-0.97,-62.93,72.84,77,68,1.16,broken clouds,0.0,0.0
226,Bud,NO,2020-01-05 09:03:10,62.91,6.91,42.8,93,90,9.17,moderate rain,0.0,0.0
227,Vestmanna,FO,2020-01-05 09:03:11,62.16,-7.17,46.4,81,99,13.87,overcast clouds,0.0,0.0
228,Sarangani,PH,2020-01-05 09:03:11,5.4,125.46,81.79,77,1,23.82,clear sky,0.0,0.0
229,Hovd,NO,2020-01-05 09:03:11,63.83,10.7,37.99,64,90,12.75,shower rain,0.0,0.0
230,Miyako,JP,2020-01-05 09:03:11,33.63,130.94,52.0,53,75,8.05,broken clouds,0.0,0.0
231,Urengoy,RU,2020-01-05 09:03:11,65.96,78.37,22.44,91,73,16.51,light snow,0.0,0.13
232,Quelimane,MZ,2020-01-05 09:03:12,-17.88,36.89,82.4,83,40,4.7,scattered clouds,0.0,0.0
233,Cherskiy,RU,2020-01-05 09:03:12,68.75,161.3,-4.5,60,20,7.36,few clouds,0.0,0.0
234,Moron,HT,2020-01-05 09:03:12,18.56,-74.26,77.85,81,1,15.39,clear sky,0.0,0.0
235,Bilibino,RU,2020-01-05 09:03:12,68.06,166.44,-6.68,60,0,2.26,clear sky,0.0,0.0
236,Rio Muerto,MX,2020-01-05 09:03:13,27.42,-110.23,57.74,44,0,2.39,clear sky,0.0,0.0
237,Carndonagh,IE,2020-01-05 09:03:13,55.25,-7.27,47.59,92,95,7.54,overcast clouds,0.0,0.0
238,Adrar,DZ,2020-01-05 09:03:13,27.87,-0.29,33.8,50,0,9.17,clear sky,0.0,0.0
239,Bowen,AU,2020-01-05 09:03:14,-20.01,148.25,81.0,69,90,14.99,overcast clouds,0.0,0.0
240,Whitehorse,CA,2020-01-05 09:03:14,60.72,-135.06,-11.0,69,5,6.93,clear sky,0.0,0.0
241,Pevek,RU,2020-01-05 09:03:14,69.7,170.27,-6.61,72,0,4.38,clear sky,0.0,0.0
242,Yamada,JP,2020-01-05 09:03:14,36.58,137.08,39.99,80,75,4.7,light intensity shower rain,0.0,0.0
243,Paamiut,GL,2020-01-05 09:03:04,61.99,-49.67,24.21,77,100,11.12,overcast clouds,0.0,0.0
244,Cayenne,GF,2020-01-05 09:03:15,4.94,-52.33,75.2,94,19,5.82,light rain,0.44,0.0
245,Altamira,BR,2020-01-05 08:59:53,-3.2,-52.21,71.74,99,97,1.86,light rain,0.31,0.0
246,Alice Springs,AU,2020-01-05 09:03:15,-23.7,133.88,82.4,37,75,13.87,broken clouds,0.0,0.0
247,Bad Munstereifel,DE,2020-01-05 09:03:15,50.55,6.77,45.0,93,90,3.36,overcast clouds,0.0,0.0
248,Anadyr,RU,2020-01-05 09:03:16,64.73,177.51,-32.8,66,0,11.18,clear sky,0.0,0.0
249,Payo,ID,2020-01-05 09:03:16,-3.75,103.64,78.49,78,31,2.93,light rain,2.69,0.0
250,Praya,ID,2020-01-05 09:03:16,-8.71,116.27,87.8,62,75,12.75,broken clouds,0.0,0.0
251,Slave Lake,CA,2020-01-05 09:03:16,55.28,-114.77,8.6,84,1,4.7,clear sky,0.0,0.0
252,Falesti,MD,2020-01-05 09:03:17,47.57,27.71,36.0,80,20,6.93,few clouds,0.0,0.0
253,Saint-Francois,FR,2020-01-05 09:03:17,46.42,3.91,41.0,86,40,3.67,scattered clouds,0.0,0.0
254,Husavik,CA,2020-01-05 09:03:17,50.56,-96.99,25.0,86,100,5.99,light snow,0.0,0.38
255,Esperance,AU,2020-01-05 09:03:17,-33.86,121.89,86.0,65,24,8.05,few clouds,0.0,0.0
256,Slawno,PL,2020-01-05 08:58:58,52.84,16.56,34.0,80,0,9.17,clear sky,0.0,0.0
257,Mahajanga,MG,2020-01-05 09:03:18,-15.72,46.32,80.6,83,40,4.7,scattered clouds,0.0,0.0
258,Fairbanks,US,2020-01-05 08:59:03,64.84,-147.72,-18.0,74,100,2.06,overcast clouds,0.0,0.0
259,Verkhnyaya Toyma,RU,2020-01-05 09:03:18,62.24,45.0,25.88,96,94,1.9,light snow,0.0,0.13
260,Sovetskiy,RU,2020-01-05 09:03:18,56.76,48.47,28.06,94,100,9.37,light snow,0.0,0.13
261,Zhezkazgan,KZ,2020-01-05 09:03:18,47.8,67.71,24.8,100,90,8.95,light snow,0.0,0.0
262,Carroll,AU,2020-01-05 09:03:19,-30.99,150.44,95.0,28,40,19.46,scattered clouds,0.0,0.0
263,Pisco,PE,2020-01-05 09:03:19,-13.71,-76.2,69.8,83,98,12.75,overcast clouds,0.0,0.0
264,Bartlesville,US,2020-01-05 09:01:50,36.75,-95.98,44.6,74,1,3.36,clear sky,0.0,0.0
265,Sioux Lookout,CA,2020-01-05 09:03:19,50.1,-91.92,21.2,85,90,10.29,light snow,0.0,0.0
266,Maracaibo,CO,2020-01-05 09:03:20,3.41,-75.78,68.0,94,40,3.36,scattered clouds,0.0,0.0
267,Luena,AO,2020-01-05 09:03:20,-11.78,19.91,68.0,94,75,4.7,broken clouds,0.0,0.0
268,Tshikapa,CD,2020-01-05 09:03:20,-6.42,20.79,81.07,71,100,3.2,overcast clouds,0.0,0.0
269,Touros,BR,2020-01-05 09:03:20,-5.2,-35.46,73.4,88,40,3.36,scattered clouds,0.0,0.0
270,Te Anau,NZ,2020-01-05 09:03:20,-45.41,167.72,45.39,79,96,13.18,light rain,0.44,0.0
271,Belyy Yar,RU,2020-01-05 09:03:21,53.6,91.39,21.2,79,69,2.24,broken clouds,0.0,0.0
272,Nome,US,2020-01-05 09:03:21,30.04,-94.42,46.99,93,1,4.0,clear sky,0.0,0.0
273,State College,US,2020-01-05 08:59:57,40.79,-77.86,32.0,78,90,13.87,overcast clouds,0.0,0.0
274,Beruwala,LK,2020-01-05 09:03:21,6.48,79.98,84.18,73,43,9.42,scattered clouds,0.0,0.0
275,Puerto Quijarro,BO,2020-01-05 09:03:21,-19.0,-57.72,71.08,62,0,0.76,clear sky,0.0,0.0
276,Perg,AT,2020-01-05 09:03:21,48.25,14.63,37.99,74,20,2.24,few clouds,0.0,0.0
277,Westport,US,2020-01-05 09:03:22,41.14,-73.36,39.99,64,90,11.41,light rain,0.0,0.0
278,Ducheng,CN,2020-01-05 09:03:22,30.54,114.9,53.94,83,100,4.65,overcast clouds,0.0,0.0
279,Vadso,NO,2020-01-05 09:03:22,70.07,29.75,21.2,85,75,31.09,broken clouds,0.0,0.0
280,Burnie,AU,2020-01-05 09:00:13,-41.05,145.91,64.76,50,34,12.86,scattered clouds,0.0,0.0
281,Nelson Bay,AU,2020-01-05 09:03:23,-32.72,152.14,71.6,73,90,19.46,overcast clouds,0.0,0.0
282,Necochea,AR,2020-01-05 09:03:23,-38.55,-58.74,64.78,96,100,2.77,moderate rain,6.5,0.0
283,Moose Factory,CA,2020-01-05 09:03:23,51.26,-80.61,1.4,91,90,3.36,mist,0.0,0.0
284,Dalian,CN,2020-01-05 09:03:23,19.86,110.11,77.0,69,40,15.66,scattered clouds,0.0,0.0
285,Balabac,PH,2020-01-05 09:03:24,7.99,117.06,81.45,75,6,18.05,clear sky,0.0,0.0
286,Roma,IT,2020-01-05 09:03:21,41.89,12.48,52.0,87,0,10.29,clear sky,0.0,0.0
287,Morondava,MG,2020-01-05 09:03:24,-20.3,44.28,97.59,42,11,5.1,few clouds,0.0,0.0
288,Scottsbluff,US,2020-01-05 09:03:24,41.87,-103.67,37.99,64,40,13.87,scattered clouds,0.0,0.0
289,Ocosingo,MX,2020-01-05 09:03:24,16.91,-92.09,50.54,99,68,2.73,light rain,0.13,0.0
290,Holme,DK,2020-01-05 09:03:25,56.11,10.17,37.4,88,60,3.36,broken clouds,0.0,0.0
291,Yerbogachen,RU,2020-01-05 09:03:25,61.28,108.01,16.84,88,100,13.71,light snow,0.0,0.13
292,Dicabisagan,PH,2020-01-05 09:03:25,17.08,122.42,74.89,80,47,13.13,light rain,0.88,0.0
293,Bathsheba,BB,2020-01-05 09:03:26,13.22,-59.52,75.2,73,20,8.05,few clouds,0.0,0.0
294,Fayaoue,NC,2020-01-05 09:03:26,-20.65,166.53,78.03,77,10,19.84,light rain,0.13,0.0
295,Kaeo,NZ,2020-01-05 09:03:26,-35.1,173.78,64.0,84,3,4.0,clear sky,0.0,0.0
296,Faya,SA,2020-01-05 09:03:26,18.39,42.45,66.2,77,75,14.99,broken clouds,0.0,0.0
297,Saint-Joseph,FR,2020-01-05 09:03:26,43.56,6.97,51.01,81,0,6.93,clear sky,0.0,0.0
298,Missoula,US,2020-01-05 09:00:59,46.87,-114.0,32.0,68,90,6.93,overcast clouds,0.0,0.0
299,Saint George,GR,2020-01-05 09:03:27,39.45,22.34,50.0,65,75,23.04,broken clouds,0.0,0.0
300,Belmonte,PT,2020-01-05 09:03:27,40.36,-7.35,44.01,21,0,7.0,clear sky,0.0,0.0
301,Emerald,AU,2020-01-05 09:03:27,-23.53,148.16,95.0,24,40,12.75,scattered clouds,0.0,0.0
302,Pombia,GR,2020-01-05 09:03:28,35.01,24.87,63.0,48,20,8.05,few clouds,0.0,0.0
303,Dingle,PH,2020-01-05 09:03:28,11.0,122.67,77.54,87,12,13.18,light rain,0.56,0.0
304,Port Blair,IN,2020-01-05 09:03:28,11.67,92.75,81.68,76,24,10.71,few clouds,0.0,0.0
305,Gravdal,NO,2020-01-05 09:03:28,59.79,5.78,45.0,100,90,16.11,light intensity drizzle,0.0,0.0
306,Sur,OM,2020-01-05 09:03:29,22.57,59.53,81.25,39,17,17.96,few clouds,0.0,0.0
307,Najran,SA,2020-01-05 09:03:29,17.54,44.22,82.4,37,0,2.24,clear sky,0.0,0.0
308,Qatana,SY,2020-01-05 09:03:29,33.43,36.09,53.6,100,75,9.17,light rain,0.0,0.0
309,Beringovskiy,RU,2020-01-05 09:03:30,63.05,179.32,-7.6,74,0,19.04,clear sky,0.0,0.0
310,Wick,GB,2020-01-05 09:03:30,51.45,-2.43,46.0,93,90,10.29,overcast clouds,0.0,0.0
311,Namibe,AO,2020-01-05 09:03:30,-15.19,12.15,73.4,88,90,5.03,overcast clouds,0.0,0.0
312,Dudinka,RU,2020-01-05 09:03:30,69.41,86.18,12.2,85,90,35.79,overcast clouds,0.0,0.0
313,Ambagarh Chauki,IN,2020-01-05 09:03:31,20.78,80.75,74.73,40,0,6.55,clear sky,0.0,0.0
314,Talnakh,RU,2020-01-05 09:03:31,69.49,88.39,12.2,85,90,35.79,overcast clouds,0.0,0.0
315,Hamilton,CA,2020-01-05 09:03:31,43.26,-79.87,34.0,86,90,18.34,light snow,0.0,0.0
316,Santa Luzia,BR,2020-01-05 09:03:31,-19.77,-43.85,69.8,88,75,2.24,broken clouds,0.0,0.0
317,Lebu,ET,2020-01-05 09:03:32,8.96,38.73,71.78,38,6,3.31,clear sky,0.0,0.0
318,Bethel,US,2020-01-05 09:03:21,60.79,-161.76,-11.2,83,1,4.7,clear sky,0.0,0.0
319,Flinders,AU,2020-01-05 09:03:32,-34.58,150.85,70.0,100,71,4.7,light rain,0.19,0.0
320,Huicungo,PE,2020-01-05 09:03:32,-7.28,-76.8,60.64,96,11,3.56,few clouds,0.0,0.0
321,Coihaique,CL,2020-01-05 09:03:33,-45.58,-72.07,48.2,76,75,4.7,broken clouds,0.0,0.0
322,Soyo,AO,2020-01-05 09:03:33,-6.13,12.37,82.4,83,20,5.82,few clouds,0.0,0.0
323,Matara,BI,2020-01-05 09:03:33,-3.48,29.48,80.6,69,75,4.09,broken clouds,0.0,0.0
324,Cidreira,BR,2020-01-05 09:03:33,-30.17,-50.22,72.0,83,7,14.56,clear sky,0.0,0.0
325,Cortez,US,2020-01-05 09:00:28,37.35,-108.58,19.4,85,1,6.93,clear sky,0.0,0.0
326,Iquitos,PE,2020-01-05 09:03:34,-3.75,-73.25,73.4,100,20,1.12,few clouds,0.0,0.0
327,Mikkeli,FI,2020-01-05 08:59:04,61.69,27.27,23.0,67,9,5.82,clear sky,0.0,0.0
328,Stroitel,RU,2020-01-05 09:03:34,52.65,41.45,30.58,94,100,3.78,overcast clouds,0.0,0.0
329,Vila Franca Do Campo,PT,2020-01-05 09:03:34,37.72,-25.43,62.6,88,20,16.11,few clouds,0.0,0.0
330,Thompson,CA,2020-01-05 09:00:16,55.74,-97.86,5.0,92,90,6.93,light snow,0.0,0.0
331,Sinnamary,GF,2020-01-05 09:03:35,5.38,-52.96,78.98,81,100,14.7,light rain,0.5,0.0
332,Inhambane,MZ,2020-01-05 09:03:35,-23.87,35.38,87.8,55,20,6.93,few clouds,0.0,0.0
333,Karratha,AU,2020-01-05 09:03:35,-20.74,116.85,84.99,72,91,14.94,overcast clouds,0.0,0.0
334,Vila,IT,2020-01-05 09:03:35,45.18,8.4,46.0,70,0,4.7,clear sky,0.0,0.0
335,Huanuni,BO,2020-01-05 09:03:35,-18.29,-66.83,45.73,78,100,9.53,overcast clouds,0.0,0.0
336,Vardo,US,2020-01-05 09:03:36,39.62,-77.74,39.99,51,90,24.16,overcast clouds,0.0,0.0
337,Nakasongola,UG,2020-01-05 09:03:36,1.32,32.46,83.86,43,96,7.14,overcast clouds,0.0,0.0
338,Broome,GB,2020-01-05 09:03:36,52.47,1.45,45.0,87,75,6.93,broken clouds,0.0,0.0
339,Natal,BR,2020-01-05 09:03:36,-5.81,-35.21,75.2,88,20,3.36,few clouds,0.0,0.0
340,Sao Felix Do Xingu,BR,2020-01-05 09:03:37,-6.64,-51.99,69.75,98,79,1.1,light rain,0.69,0.0
341,Beli Potok,RS,2020-01-05 09:03:37,44.71,20.52,35.6,74,75,17.22,broken clouds,0.0,0.0
342,Saint Andrews,NZ,2020-01-05 09:03:37,-44.53,171.19,55.99,85,52,4.0,broken clouds,0.0,0.0
343,Vila Velha,BR,2020-01-05 09:03:27,-3.71,-38.6,86.0,83,40,6.93,scattered clouds,0.0,0.0
344,Kovacica,RS,2020-01-05 09:03:37,45.11,20.62,35.6,74,67,21.92,light snow,0.0,0.25
345,Kavieng,PG,2020-01-05 09:03:38,-2.57,150.8,84.85,74,55,10.71,light rain,0.94,0.0
346,Cabo San Lucas,MX,2020-01-05 09:00:10,22.89,-109.91,64.99,68,9,1.01,clear sky,0.0,0.0
347,Lazaro Cardenas,MX,2020-01-05 09:03:38,28.39,-105.62,36.0,63,0,8.12,clear sky,0.0,0.0
348,Mount Gambier,AU,2020-01-05 08:59:22,-37.83,140.78,60.8,55,100,19.46,overcast clouds,0.0,0.0
349,Uyuni,BO,2020-01-05 09:03:39,-20.46,-66.82,48.29,56,79,12.1,broken clouds,0.0,0.0
350,Atasu,KZ,2020-01-05 09:03:39,48.68,71.64,22.37,84,82,2.64,broken clouds,0.0,0.0
351,Satkhira,BD,2020-01-05 09:03:39,22.72,89.08,66.2,88,75,9.17,haze,0.0,0.0
352,Codrington,AU,2020-01-05 09:03:38,-28.95,153.24,86.0,51,0,6.93,clear sky,0.0,0.0
353,Inirida,CO,2020-01-05 09:03:40,3.87,-67.92,69.98,81,85,2.15,overcast clouds,0.0,0.0
354,Xuddur,SO,2020-01-05 09:03:40,4.12,43.89,88.32,40,0,11.54,clear sky,0.0,0.0
355,Sehithwa,BW,2020-01-05 09:03:41,-20.47,22.7,85.12,44,100,4.29,overcast clouds,0.0,0.0
356,Klyuchi,RU,2020-01-05 09:03:41,52.25,79.17,23.86,86,100,9.04,overcast clouds,0.0,0.0
357,Tura,RU,2020-01-05 09:03:41,64.27,100.22,8.53,89,100,7.9,overcast clouds,0.0,0.0
358,Mana,NG,2020-01-05 09:03:41,13.03,5.27,68.74,20,0,19.73,clear sky,0.0,0.0
359,Mount Darwin,ZW,2020-01-05 09:03:42,-16.77,31.58,79.32,69,100,3.83,light rain,1.75,0.0
360,Port Hedland,AU,2020-01-05 09:03:42,-20.31,118.58,91.4,55,75,13.87,broken clouds,0.0,0.0
361,Manica,MZ,2020-01-05 09:03:42,-18.94,32.88,78.8,69,75,3.78,broken clouds,0.0,0.0
362,Bethlehem,US,2020-01-05 09:03:43,40.62,-75.38,41.0,55,90,13.87,overcast clouds,0.0,0.0
363,Magistralnyy,RU,2020-01-05 09:03:43,56.17,107.45,11.91,91,64,5.23,broken clouds,0.0,0.0
364,Suhbaatar,MN,2020-01-05 09:03:43,50.23,106.21,9.45,95,91,3.49,light snow,0.0,0.19
365,Walvis Bay,NA,2020-01-05 09:03:43,-22.95,14.51,66.99,82,90,2.24,overcast clouds,0.0,0.0
366,Oussouye,SN,2020-01-05 09:03:43,12.49,-16.54,66.2,39,0,11.41,clear sky,0.0,0.0
367,Kyzyl-Suu,KG,2020-01-05 09:03:44,42.34,78.0,27.75,66,0,5.55,clear sky,0.0,0.0
368,Harper,US,2020-01-05 09:03:44,30.3,-99.24,51.01,55,1,5.82,clear sky,0.0,0.0
369,Tabuk,PH,2020-01-05 09:03:44,17.41,121.44,73.9,82,51,7.52,light rain,0.44,0.0
370,Leningradskiy,RU,2020-01-05 09:03:44,69.38,178.42,-10.86,57,0,3.27,clear sky,0.0,0.0
371,Salalah,OM,2020-01-05 09:03:45,17.01,54.1,80.6,61,75,14.99,broken clouds,0.0,0.0
372,Kirakira,SB,2020-01-05 09:03:45,-10.46,161.92,79.21,86,99,9.6,overcast clouds,0.0,0.0
373,Nyahururu,KE,2020-01-05 09:00:17,0.03,36.37,68.45,51,100,9.06,overcast clouds,0.0,0.0
374,Wattegama,LK,2020-01-05 09:03:45,7.35,80.68,90.43,40,0,6.8,clear sky,0.0,0.0
375,Vigrestad,NO,2020-01-05 09:03:45,58.57,5.7,44.01,100,90,10.29,light intensity drizzle rain,0.0,0.0
376,Alenquer,BR,2020-01-05 09:03:46,-1.95,-54.74,75.2,94,90,8.05,light rain,0.0,0.0
377,Fomboni,KM,2020-01-05 09:03:46,-12.28,43.74,82.49,79,100,11.52,light rain,2.31,0.0
378,Yeniseysk,RU,2020-01-05 09:03:46,58.45,92.17,24.1,95,100,7.29,light snow,0.0,0.56
379,Kamakwie,SL,2020-01-05 09:03:46,9.5,-12.24,71.1,17,0,5.88,clear sky,0.0,0.0
380,Sao Joao Da Barra,BR,2020-01-05 09:03:47,-21.64,-41.05,75.6,94,100,8.48,light rain,0.56,0.0
381,Waingapu,ID,2020-01-05 09:03:47,-9.65,120.26,84.94,73,100,27.13,light rain,1.06,0.0
382,Xiongyue,CN,2020-01-05 09:03:47,40.18,122.12,30.29,53,100,1.36,overcast clouds,0.0,0.0
383,Dangriga,BZ,2020-01-05 09:03:47,16.97,-88.23,70.0,87,98,4.0,light rain,0.5,0.0
384,Barabai,ID,2020-01-05 09:03:47,-2.59,115.38,84.2,67,94,1.5,overcast clouds,0.0,0.0
385,Canico,PT,2020-01-05 09:03:48,32.63,-16.85,62.6,67,20,6.93,few clouds,0.0,0.0
386,Muzhi,RU,2020-01-05 09:03:48,65.4,64.7,21.76,81,9,13.73,clear sky,0.0,0.0
387,Troy,US,2020-01-05 09:03:48,42.73,-73.69,35.6,59,90,19.46,overcast clouds,0.0,0.0
388,Parana,BR,2020-01-05 09:03:48,-7.52,-72.89,71.31,94,40,2.44,scattered clouds,0.0,0.0
389,Montrose,GB,2020-01-05 09:03:49,56.71,-2.47,46.99,87,40,9.17,scattered clouds,0.0,0.0
390,Muroran,JP,2020-01-05 09:03:49,42.32,140.98,26.6,63,75,6.93,broken clouds,0.0,0.0
391,San Quintin,PH,2020-01-05 09:03:49,17.54,120.52,79.12,67,59,0.22,broken clouds,0.0,0.0
392,Dwarka,IN,2020-01-05 09:03:49,28.58,77.04,66.2,48,20,9.17,haze,0.0,0.0
393,Chengzihe,CN,2020-01-05 09:03:49,45.35,131.0,5.97,90,8,3.24,clear sky,0.0,0.0
394,Bahia De Caraquez,EC,2020-01-05 09:03:50,-0.6,-80.42,77.0,83,90,10.29,overcast clouds,0.0,0.0
395,High Rock,BS,2020-01-05 09:03:50,26.63,-78.28,70.11,74,6,27.36,clear sky,0.0,0.0
396,Claudio,BR,2020-01-05 09:03:50,-20.44,-44.77,65.16,97,33,3.06,scattered clouds,0.0,0.0
397,Baoqing,CN,2020-01-05 09:03:50,46.32,132.2,9.05,82,0,6.17,clear sky,0.0,0.0
398,Antofagasta,CL,2020-01-05 09:02:00,-23.65,-70.4,72.0,64,90,4.7,overcast clouds,0.0,0.0
399,Zambezi,ZM,2020-01-05 09:03:51,-13.55,23.12,77.4,69,100,5.91,light rain,0.63,0.0
400,Weihai,CN,2020-01-05 09:03:51,37.5,122.11,45.0,74,100,5.95,overcast clouds,0.0,0.0
401,Peleduy,RU,2020-01-05 09:03:51,59.63,112.75,18.77,94,100,10.63,light snow,0.0,0.56
402,Wajid,SO,2020-01-05 09:03:51,3.81,43.25,90.75,35,0,11.05,clear sky,0.0,0.0
403,Gbadolite,CD,2020-01-05 09:03:51,4.28,21.0,91.85,26,8,3.29,clear sky,0.0,0.0
404,Huarmey,PE,2020-01-05 09:03:52,-10.07,-78.15,68.77,80,99,0.6,overcast clouds,0.0,0.0
405,Emba,CY,2020-01-05 09:03:52,34.81,32.42,60.8,72,75,8.48,broken clouds,0.0,0.0
406,Kieta,PG,2020-01-05 09:03:52,-6.22,155.63,84.36,71,100,1.72,moderate rain,4.44,0.0
407,Ahuimanu,US,2020-01-05 09:03:53,21.44,-157.84,75.99,94,75,6.93,light rain,0.0,0.0
408,Ilulissat,GL,2020-01-05 09:03:53,69.22,-51.1,12.2,85,100,17.22,light snow,0.0,0.0
409,Porto Novo,BR,2020-01-05 09:03:53,-23.68,-45.44,68.0,94,75,1.74,mist,0.0,0.0
410,Chapaevsk,RU,2020-01-05 09:03:53,52.98,49.71,33.8,86,75,8.95,broken clouds,0.0,0.0
411,Almaznyy,RU,2020-01-05 09:03:53,48.03,40.04,30.2,86,40,8.95,scattered clouds,0.0,0.0
412,Lorengau,PG,2020-01-05 09:03:54,-2.02,147.27,83.98,74,100,13.91,overcast clouds,0.0,0.0
413,Plettenberg Bay,ZA,2020-01-05 09:03:54,-34.05,23.37,71.49,66,38,10.67,scattered clouds,0.0,0.0
414,Paita,PE,2020-01-05 09:03:54,-5.09,-81.11,74.19,69,100,9.98,overcast clouds,0.0,0.0
415,Aklavik,CA,2020-01-05 09:03:54,68.22,-135.01,-25.6,74,75,5.82,broken clouds,0.0,0.0
416,Bagdarin,RU,2020-01-05 09:03:54,54.44,113.59,4.55,86,66,4.65,broken clouds,0.0,0.0
417,Tottori,JP,2020-01-05 09:03:55,35.5,134.23,44.6,75,75,18.34,light intensity shower rain,0.0,0.0
418,Susehri,TR,2020-01-05 09:03:55,40.16,38.09,22.17,95,78,3.62,broken clouds,0.0,0.0
419,Tiarei,PF,2020-01-05 09:03:55,-17.53,-149.33,78.8,83,20,4.7,few clouds,0.0,0.0
420,Zhigansk,RU,2020-01-05 09:03:55,66.77,123.37,-15.9,95,100,11.34,overcast clouds,0.0,0.0
421,Lubango,AO,2020-01-05 09:03:56,-14.92,13.49,62.6,75,75,17.22,broken clouds,0.0,0.0
422,Kalmunai,LK,2020-01-05 09:03:56,7.42,81.82,82.09,77,54,9.13,broken clouds,0.0,0.0
423,Denia,ES,2020-01-05 09:03:56,38.84,0.11,54.0,74,0,3.78,clear sky,0.0,0.0
424,Weifang,CN,2020-01-05 09:03:56,36.71,119.16,39.58,87,100,7.49,light rain,0.44,0.0
425,Kasongo,CD,2020-01-05 09:03:56,-4.43,26.67,77.58,88,100,4.14,moderate rain,5.25,0.0
426,Itarema,BR,2020-01-05 09:03:57,-2.92,-39.92,75.29,90,100,3.27,overcast clouds,0.0,0.0
427,Sarkand,KZ,2020-01-05 09:03:57,45.41,79.91,26.11,65,0,2.01,clear sky,0.0,0.0
428,Palmer,AU,2020-01-05 09:03:57,-34.85,139.16,62.01,59,75,6.93,broken clouds,0.0,0.0
429,Cairns,AU,2020-01-05 09:03:52,-16.92,145.77,82.99,69,75,10.29,broken clouds,0.0,0.0
430,Ha Giang,VN,2020-01-05 09:03:58,22.83,104.99,61.9,96,93,7.72,light rain,0.56,0.0
431,Mitu,IR,2020-01-05 09:03:58,36.2,46.09,28.33,87,100,5.46,overcast clouds,0.0,0.0
432,Reyes,BO,2020-01-05 09:03:58,-14.3,-67.34,71.47,99,100,1.83,light rain,0.19,0.0
433,Diego De Almagro,CL,2020-01-05 09:03:58,-26.39,-70.05,46.85,94,0,1.25,clear sky,0.0,0.0
434,Qandala,SO,2020-01-05 09:03:59,11.47,49.87,79.3,65,0,9.98,clear sky,0.0,0.0
435,Saint-Georges,CA,2020-01-05 09:03:59,46.12,-70.67,27.0,91,100,4.0,light snow,0.0,0.75
436,Kampene,CD,2020-01-05 09:03:59,-3.59,26.67,74.01,89,100,2.1,light rain,1.31,0.0
437,Noumea,NC,2020-01-05 09:01:11,-22.28,166.46,81.0,65,0,6.93,clear sky,0.0,0.0
438,Maragogi,BR,2020-01-05 09:02:29,-9.01,-35.22,79.52,76,93,11.39,light rain,0.13,0.0
439,Angoche,MZ,2020-01-05 09:04:00,-16.23,39.91,88.16,65,100,3.62,light rain,0.44,0.0
440,Pimenta Bueno,BR,2020-01-05 09:04:00,-11.68,-61.19,71.4,98,100,3.13,moderate rain,3.06,0.0
441,Thibodaux,US,2020-01-05 09:04:00,29.8,-90.82,46.4,87,1,1.48,clear sky,0.0,0.0
442,Curaca,BR,2020-01-05 09:04:01,-8.99,-39.91,73.89,89,100,12.01,light rain,0.13,0.0
443,Ternate,PH,2020-01-05 09:04:01,14.29,120.72,86.0,55,20,12.75,few clouds,0.0,0.0
444,Perpignan,FR,2020-01-05 09:04:01,42.7,2.88,55.99,38,0,24.16,clear sky,0.0,0.0
445,Samarai,PG,2020-01-05 09:04:01,-10.62,150.67,79.66,82,100,3.15,overcast clouds,0.0,0.0
446,Hede,SE,2020-01-05 09:04:01,60.45,15.49,28.0,79,100,6.93,overcast clouds,0.0,0.0
447,Roswell,US,2020-01-05 09:04:02,33.39,-104.52,37.4,59,1,3.36,clear sky,0.0,0.0
448,Kadyy,RU,2020-01-05 09:04:02,57.79,43.19,29.26,90,92,8.3,overcast clouds,0.0,0.0
449,San Marcos,GT,2020-01-05 09:04:02,14.97,-91.79,71.6,100,5,8.37,clear sky,0.0,0.0
450,Boueni,YT,2020-01-05 09:04:03,-12.9,45.08,84.2,79,100,10.29,light rain,0.63,0.0
451,Pekan,MY,2020-01-05 09:04:03,3.49,103.39,87.8,62,40,8.05,scattered clouds,0.0,0.0
452,Hanna,CA,2020-01-05 09:02:17,51.64,-111.93,21.99,63,0,15.99,clear sky,0.0,0.0
453,Mount Isa,AU,2020-01-05 09:04:04,-20.73,139.49,100.4,21,80,14.99,broken clouds,0.0,0.0
454,Bima,ID,2020-01-05 09:04:05,-8.45,118.73,81.19,79,94,2.26,light rain,1.63,0.0
455,Gillette,US,2020-01-05 09:04:05,44.29,-105.5,30.2,39,1,28.86,clear sky,0.0,0.0
456,Ambovombe,MG,2020-01-05 09:04:05,-25.18,46.09,91.26,43,0,13.15,clear sky,0.0,0.0
457,Calabozo,VE,2020-01-05 09:04:06,8.92,-67.43,69.33,66,0,5.19,clear sky,0.0,0.0
458,Kaka,TM,2020-01-05 09:04:06,37.35,59.62,40.48,88,100,7.52,light rain,1.44,0.0
459,Seoul,KR,2020-01-05 09:02:35,37.57,126.98,41.0,47,75,1.12,broken clouds,0.0,0.0
460,Charters Towers,AU,2020-01-05 09:04:06,-20.07,146.27,81.01,58,31,17.65,scattered clouds,0.0,0.0
461,Kavaratti,IN,2020-01-05 09:04:07,10.57,72.64,87.8,58,20,4.7,few clouds,0.0,0.0
462,Sinegorye,RU,2020-01-05 09:04:07,62.09,150.53,-4.99,87,1,1.97,clear sky,0.0,0.0
463,Sambava,MG,2020-01-05 09:04:07,-14.27,50.17,84.78,75,100,3.83,light rain,2.44,0.0
464,Severnoye,RU,2020-01-05 09:04:07,54.09,52.54,29.88,96,100,14.5,light snow,0.0,0.31
465,Poum,MK,2020-01-05 09:04:07,41.28,20.71,37.4,69,75,9.17,broken clouds,0.0,0.0
466,Richards Bay,ZA,2020-01-05 09:04:08,-28.77,32.06,84.27,71,0,10.89,clear sky,0.0,0.0
467,Birjand,IR,2020-01-05 09:04:08,32.86,59.22,50.0,76,40,6.93,scattered clouds,0.0,0.0
468,Codajas,BR,2020-01-05 09:04:08,-3.84,-62.06,74.95,95,100,1.63,overcast clouds,0.0,0.0
469,Lenoir,US,2020-01-05 09:01:09,35.91,-81.54,39.2,69,1,1.61,clear sky,0.0,0.0
470,Hueytown,US,2020-01-05 09:04:08,33.45,-87.0,34.0,74,1,3.13,clear sky,0.0,0.0
471,Kosh-Agach,RU,2020-01-05 09:04:09,49.99,88.66,-2.67,88,0,0.67,clear sky,0.0,0.0
472,Oktyabrskiy,RU,2020-01-05 09:04:09,55.61,37.97,35.01,80,75,4.47,broken clouds,0.0,0.0
473,Bonthe,SL,2020-01-05 09:04:09,7.53,-12.5,76.42,60,30,5.7,scattered clouds,0.0,0.0
474,Houston,US,2020-01-05 09:04:03,29.76,-95.37,51.01,81,1,3.69,clear sky,0.0,0.0
475,Solnechnyy,RU,2020-01-05 09:04:10,50.72,136.64,-5.49,87,31,1.52,scattered clouds,0.0,0.0
476,Srednekolymsk,RU,2020-01-05 09:04:10,67.46,153.71,1.13,57,58,2.44,broken clouds,0.0,0.0
477,Anloga,GH,2020-01-05 09:04:10,5.79,0.9,71.6,37,45,10.29,haze,0.0,0.0
478,Aripuana,BR,2020-01-05 09:04:11,-9.17,-60.63,71.98,99,100,3.29,moderate rain,3.31,0.0
479,Chunoyar,RU,2020-01-05 09:04:11,57.45,97.32,14.16,91,41,6.78,scattered clouds,0.0,0.0
480,Yermolayevo,RU,2020-01-05 09:04:11,52.7,55.83,25.45,96,100,10.45,light snow,0.0,0.31
481,Les Cayes,HT,2020-01-05 09:04:11,18.19,-73.75,79.05,78,16,6.46,few clouds,0.0,0.0
482,Nuevo Progreso,US,2020-01-05 09:04:12,26.05,-97.95,50.0,87,1,4.7,clear sky,0.0,0.0
483,Santa Isabel Do Rio Negro,BR,2020-01-05 09:04:12,-0.41,-65.02,72.52,81,83,0.69,broken clouds,0.0,0.0
484,Phan Thiet,VN,2020-01-05 09:03:02,10.93,108.1,85.95,42,46,8.68,scattered clouds,0.0,0.0
485,Izberbash,RU,2020-01-05 09:04:12,42.57,47.86,41.0,86,75,4.47,broken clouds,0.0,0.0
486,Botshabelo,ZA,2020-01-05 09:04:12,-29.23,26.73,77.0,53,0,11.41,clear sky,0.0,0.0
487,Port Moresby,PG,2020-01-05 09:02:26,-9.47,147.16,86.0,70,40,11.41,scattered clouds,0.0,0.0
488,Joshimath,IN,2020-01-05 09:04:13,30.57,79.57,36.99,31,50,4.03,scattered clouds,0.0,0.0
489,Half Moon Bay,US,2020-01-05 09:04:13,37.46,-122.43,50.0,87,75,14.99,broken clouds,0.0,0.0
490,Gijon,ES,2020-01-05 09:04:13,43.54,-5.66,45.0,93,20,4.7,few clouds,0.0,0.0
491,Batagay-Alyta,RU,2020-01-05 09:04:13,67.8,130.41,-21.89,74,63,3.2,broken clouds,0.0,0.0
492,Souillac,FR,2020-01-05 09:04:14,45.6,-0.6,36.0,87,0,7.29,fog,0.0,0.0
493,Mangrol,IN,2020-01-05 09:04:14,25.33,76.51,72.27,33,0,2.46,clear sky,0.0,0.0
494,Evensk,RU,2020-01-05 09:04:14,61.92,159.24,1.94,43,15,3.96,few clouds,0.0,0.0
495,Mayo,CA,2020-01-05 09:04:14,63.59,-135.9,-14.8,62,20,9.17,few clouds,0.0,0.0
496,Ojinaga,US,2020-01-05 09:04:15,29.56,-104.41,41.0,52,1,6.93,clear sky,0.0,0.0
497,Broken Hill,AU,2020-01-05 09:04:15,-31.97,141.45,71.6,30,43,25.28,scattered clouds,0.0,0.0
498,Houma,CN,2020-01-05 09:04:15,35.63,111.36,33.53,98,100,3.71,snow,0.0,1.75
499,Bafata,GW,2020-01-05 09:04:15,12.17,-14.67,67.5,15,4,8.43,clear sky,0.0,0.0
500,Tuy Hoa,VN,2020-01-05 09:04:16,13.08,109.3,76.15,78,97,16.64,overcast clouds,0.0,0.0
501,Ibra,OM,2020-01-05 09:04:16,22.69,58.55,76.62,43,45,8.79,scattered clouds,0.0,0.0
502,Tessalit,ML,2020-01-05 09:04:16,20.2,1.01,59.54,25,0,19.01,clear sky,0.0,0.0
503,Flin Flon,CA,2020-01-05 09:04:16,54.77,-101.88,7.56,96,100,3.44,light snow,0.0,0.75
504,Villa Maria,CO,2020-01-05 09:04:17,4.5,-74.09,51.8,87,20,2.24,few clouds,0.0,0.0
505,Suntar,RU,2020-01-05 09:04:17,62.16,117.65,-1.07,95,100,3.74,overcast clouds,0.0,0.0
506,Dongtai,CN,2020-01-05 09:04:17,32.85,120.31,50.0,86,100,3.0,light rain,2.25,0.0
507,Talakan,RU,2020-01-05 09:04:17,50.29,130.28,-8.91,99,91,1.66,overcast clouds,0.0,0.0
508,Toppenish,US,2020-01-05 09:04:18,46.38,-120.31,42.01,77,90,3.36,overcast clouds,0.0,0.0
509,Sola,TZ,2020-01-05 09:04:18,-3.17,33.8,79.07,49,57,6.55,broken clouds,0.0,0.0
510,Santiago,PH,2020-01-05 09:04:18,16.69,121.54,71.17,87,51,4.0,light rain,0.5,0.0
511,Bakel,SN,2020-01-05 09:04:18,14.9,-12.46,67.06,15,0,17.11,clear sky,0.0,0.0
512,Radhanpur,IN,2020-01-05 09:04:18,23.83,71.61,78.58,27,0,9.62,clear sky,0.0,0.0
513,Shizunai,JP,2020-01-05 09:04:19,42.33,142.37,18.43,82,92,8.48,light snow,0.0,0.19
514,West Bay,CA,2020-01-05 09:04:19,49.34,-123.21,46.0,87,90,12.75,light rain,0.0,0.0
515,Ardesen,TR,2020-01-05 09:04:19,41.19,40.99,50.0,57,40,12.75,scattered clouds,0.0,0.0
516,Mikhaylovka,RU,2020-01-05 09:04:19,52.96,103.29,9.09,86,84,2.3,broken clouds,0.0,0.0
517,Pandan,PH,2020-01-05 09:04:20,11.72,122.09,79.61,81,60,26.22,light rain,0.81,0.0
518,Shiogama,JP,2020-01-05 09:04:20,38.33,141.02,35.6,59,40,4.7,scattered clouds,0.0,0.0
519,Airai,TL,2020-01-05 09:04:20,-8.93,125.41,73.8,83,78,3.36,light rain,2.63,0.0
520,Leh,IN,2020-01-05 09:04:20,34.16,77.58,3.78,41,63,1.01,broken clouds,0.0,0.0
521,Mareeba,AU,2020-01-05 09:04:20,-16.99,145.42,82.99,69,75,10.29,broken clouds,0.0,0.0
522,Puri,ID,2020-01-05 09:04:21,-7.54,112.45,83.1,77,100,10.96,moderate rain,6.06,0.0
523,Kharp,RU,2020-01-05 09:04:21,66.82,65.8,15.03,95,84,10.51,light snow,0.0,0.56
524,Wangaratta,AU,2020-01-05 09:04:21,-36.36,146.32,66.0,67,75,5.82,light intensity shower rain,0.0,0.0
525,Tazovskiy,RU,2020-01-05 09:04:21,67.47,78.7,21.31,89,60,19.86,broken clouds,0.0,0.0
526,Todos Santos,MX,2020-01-05 09:04:21,23.45,-110.23,64.99,85,0,1.01,clear sky,0.0,0.0
527,Sarakhs,TM,2020-01-05 09:04:22,36.54,61.16,41.0,86,75,9.17,broken clouds,0.0,0.0
528,Borogontsy,RU,2020-01-05 09:04:22,62.67,131.17,-13.5,97,96,5.84,light snow,0.0,0.13
529,Taber,CA,2020-01-05 08:59:52,49.79,-112.14,30.99,46,1,16.11,clear sky,0.0,0.0
530,Kongolo,CD,2020-01-05 09:04:22,-5.39,27.0,78.93,86,90,2.75,moderate rain,4.13,0.0
531,Mogadishu,SO,2020-01-05 09:04:22,2.04,45.34,86.0,62,20,17.22,few clouds,0.0,0.0
532,Baruun-Urt,MN,2020-01-05 09:04:23,46.68,113.28,18.01,82,100,6.87,overcast clouds,0.0,0.0
